[{"name": "SLAB BBQ & Beer", "location": {"address1": "9012 Research Blvd", "address2": "Ste C4", "address3": "", "city": "Austin", "zip_code": "78758", "country": "US", "state": "TX", "display_address": ["9012 Research Blvd", "Ste C4", "Austin, TX 78758"]}, "phone": "+15123519977", "laty": 30.3713101540255, "lonx": -97.7246514312134}, {"name": "la Barbecue", "location": {"address1": "2027 E Cesar Chavez St", "address2": "", "address3": null, "city": "Austin", "zip_code": "78702", "country": "US", "state": "TX", "display_address": ["2027 E Cesar Chavez St", "Austin, TX 78702"]}, "phone": "+15126059696", "laty": 30.2561254, "lonx": -97.7223386}, {"name": "Rollin Smoke BBQ", "location": {"address1": "1501 E 6th St", "address2": null, "address3": "", "city": "Austin", "zip_code": "78702", "country": "US", "state": "TX", "display_address": ["1501 E 6th St", "Austin, TX 78702"]}, "phone": "+15127055499", "laty": 30.2628836718604, "lonx": -97.7268981039445}, {"name": "Franklin Barbecue", "location": {"address1": "900 E 11th St", "address2": "", "address3": "", "city": "Austin", "zip_code": "78702", "country": "US", "state": "TX", "display_address": ["900 E 11th St", "Austin, TX 78702"]}, "phone": "+15126531187", "laty": 30.27009, "lonx": -97.73126}, {"name": "Valentina's Tex Mex BBQ", "location": {"address1": "11500 Menchaca Rd", "address2": null, "address3": "", "city": "Austin", "zip_code": "78748", "country": "US", "state": "TX", "display_address": ["11500 Menchaca Rd", "Austin, TX 78748"]}, "phone": "+15122214248", "laty": 30.15305, "lonx": -97.833795}, {"name": "Brown's Bar-B-Que", "location": {"address1": "1901 S Lamar Blvd", "address2": "", "address3": "", "city": "Austin", "zip_code": "78704", "country": "US", "state": "TX", "display_address": ["1901 S Lamar Blvd", "Austin, TX 78704"]}, "phone": "+15125178520", "laty": 30.24941, "lonx": -97.76696}, {"name": "Micklethwait Craft Meats", "location": {"address1": "1309 Rosewood Ave", "address2": "", "address3": "", "city": "Austin", "zip_code": "78702", "country": "US", "state": "TX", "display_address": ["1309 Rosewood Ave", "Austin, TX 78702"]}, "phone": "+15127915961", "laty": 30.26846, "lonx": -97.72518}, {"name": "Moreno Barbecue", "location": {"address1": "5700 Manchaca Rd", "address2": "", "address3": null, "city": "Austin", "zip_code": "78745", "country": "US", "state": "TX", "display_address": ["5700 Manchaca Rd", "Austin, TX 78745"]}, "phone": "+15128088271", "laty": 30.215413511269876, "lonx": -97.80034520930792}, {"name": "JNL Barbecue", "location": {"address1": "1505 Town Creek Dr", "address2": null, "address3": "", "city": "Austin", "zip_code": "78741", "country": "US", "state": "TX", "display_address": ["1505 Town Creek Dr", "Austin, TX 78741"]}, "phone": "+15128399469", "laty": 30.241613, "lonx": -97.726766}, {"name": "Courson's BBQ", "location": {"address1": "509 E Ben White Blvd", "address2": null, "address3": "", "city": "Austin", "zip_code": "78704", "country": "US", "state": "TX", "display_address": ["509 E Ben White Blvd", "Austin, TX 78704"]}, "phone": "+15125077458", "laty": 30.2184207, "lonx": -97.7577561}, {"name": "Keith's BBQ", "location": {"address1": "", "address2": null, "address3": "", "city": "Austin", "zip_code": "78704", "country": "US", "state": "TX", "display_address": ["Austin, TX 78704"]}, "phone": "+15128015663", "laty": 30.2531580982284, "lonx": -97.7639387157008}, {"name": "Terry Black's Barbecue", "location": {"address1": "1003 Barton Springs Rd", "address2": "", "address3": "", "city": "Austin", "zip_code": "78704", "country": "US", "state": "TX", "display_address": ["1003 Barton Springs Rd", "Austin, TX 78704"]}, "phone": "+15123945899", "laty": 30.2596915716907, "lonx": -97.7548013627529}, {"name": "Stiles Switch BBQ & Brew", "location": {"address1": "6610 N Lamar Blvd", "address2": "", "address3": "", "city": "Austin", "zip_code": "78757", "country": "US", "state": "TX", "display_address": ["6610 N Lamar Blvd", "Austin, TX 78757"]}, "phone": "+15123809199", "laty": 30.33432, "lonx": -97.7215}, {"name": "B Cooper Barbecue", "location": {"address1": "705 Gunter St", "address2": null, "address3": "", "city": "Austin", "zip_code": "78702", "country": "US", "state": "TX", "display_address": ["705 Gunter St", "Austin, TX 78702"]}, "phone": "+15126906220", "laty": 30.2573, "lonx": -97.70269}, {"name": "Interstellar BBQ", "location": {"address1": "12233 Ranch Rd 620 N", "address2": "", "address3": null, "city": "Austin", "zip_code": "78750", "country": "US", "state": "TX", "display_address": ["12233 Ranch Rd 620 N", "Austin, TX 78750"]}, "phone": "+15123826248", "laty": 30.4618814407535, "lonx": -97.8147587925196}, {"name": "The Original Black\u2019s Barbecue", "location": {"address1": "3110 Guadalupe St", "address2": null, "address3": "", "city": "Austin", "zip_code": "78705", "country": "US", "state": "TX", "display_address": ["3110 Guadalupe St", "Austin, TX 78705"]}, "phone": "+15125240801", "laty": 30.298492113663, "lonx": -97.7412682360079}, {"name": "Oakwood BBQ", "location": {"address1": "307 E Braker Ln", "address2": null, "address3": "", "city": "Austin", "zip_code": "78753", "country": "US", "state": "TX", "display_address": ["307 E Braker Ln", "Austin, TX 78753"]}, "phone": "+15125205165", "laty": 30.37792, "lonx": -97.6795}, {"name": "Wayside", "location": {"address1": "606 Maiden Ln", "address2": "", "address3": null, "city": "Austin", "zip_code": "78705", "country": "US", "state": "TX", "display_address": ["606 Maiden Ln", "Austin, TX 78705"]}, "phone": "+15128319900", "laty": 30.30189, "lonx": -97.73936}, {"name": "J. Leonardi's Barbeque", "location": {"address1": "1124 East 11th St", "address2": null, "address3": null, "city": "Austin", "zip_code": "78702", "country": "US", "state": "TX", "display_address": ["1124 East 11th St", "Austin, TX 78702"]}, "phone": "+15122210336", "laty": 30.26889, "lonx": -97.72788}, {"name": "Wunder Pig Barbecue", "location": {"address1": "8504 S Congress Ave", "address2": null, "address3": "", "city": "Austin", "zip_code": "78745", "country": "US", "state": "TX", "display_address": ["8504 S Congress Ave", "Austin, TX 78745"]}, "phone": "+17372623484", "laty": 30.1726682, "lonx": -97.7856542}]